[
  {"id": 1, "name": "Twist & Shout Records", "longitude": -104.957039, "latitude": 39.739979, "address": "2508 E Colfax Ave, Denver, CO 80206"},
  {"id": 2, "name": "Wax Trax Records", "longitude": -104.978920, "latitude": 39.736800, "address": "638 E 13th Ave, Denver, CO 80203"},
  {"id": 3, "name": "Recollect Records", "longitude": -104.993300, "latitude": 39.736250, "address": "1255 Delaware St, Denver, CO 80204"},
  {"id": 4, "name": "Drop To Pop Records and Curio", "longitude": -104.987690, "latitude": 39.752470, "address": "2185 N Broadway, Denver, CO 80205"},
  {"id": 5, "name": "Angelo's CD's & Vinyl", "longitude": -104.9876766, "latitude": 39.6810934, "address": "1959 S Broadway, Denver, CO 80210"}
]
                              